City_ID,City,Lat,Lng,Max Temp,Humidity,Cloudiness,Wind Speed,Country,Date
0,stanley,54.868,-1.6985,2.01,84,100,3.09,GB,1709010487
1,port-aux-francais,-49.35,70.2167,6.07,69,4,5.32,TF,1709010488
2,college,64.8569,-147.8028,-13.82,54,75,2.06,US,1709010488
3,grytviken,-54.2811,-36.5092,-0.06,83,48,3.87,GS,1709010489
4,bethel,41.3712,-73.414,5.18,84,0,1.54,US,1709010489
5,aitape,-3.1374,142.3475,28.8,76,93,2.32,PG,1709010491
6,edinburgh of the seven seas,-37.0676,-12.3116,15.04,87,100,11.51,SH,1709010491
7,malaya vishera,58.8454,32.2222,1.41,99,100,3.2,RU,1709010492
8,new plymouth,-39.0667,174.0833,16.84,73,51,4.22,NZ,1709010492
9,invercargill,-46.4,168.35,15.57,87,90,3.13,NZ,1709010493
10,copainala,17.0833,-93.2,18.99,93,73,0.35,MX,1709010493
11,lebu,-37.6167,-73.65,13.14,93,12,4.65,CL,1709010494
12,adamstown,-25.066,-130.1015,25.61,80,100,5.13,PN,1709010494
13,kodiak,57.79,-152.4072,0.73,80,100,3.6,US,1709010495
14,ushuaia,-54.8,-68.3,9.89,98,27,2.83,AR,1709010495
15,nyurba,63.2842,118.3319,-19.76,91,94,3.31,RU,1709010496
16,anadyr,64.75,177.4833,-18.72,84,75,5.0,RU,1709010496
17,ixtapa,20.7,-105.2,19.74,88,9,1.41,MX,1709010497
18,carauari,-4.8828,-66.8958,21.59,99,100,0.88,BR,1709010497
19,ceeldheer,3.8488,47.1806,26.99,67,100,6.11,SO,1709010498
20,ataq,14.5377,46.8319,20.64,39,4,1.01,YE,1709010499
21,horta,38.5333,-28.6333,15.57,73,5,3.13,PT,1709010499
22,ilulissat,69.2167,-51.1,-17.99,65,75,0.0,GL,1709010500
23,atafu village,-8.5421,-172.5159,28.73,77,100,8.1,TK,1709010500
24,constantia,44.1833,28.65,4.38,92,100,4.34,RO,1709010262
25,puerto madero,14.7208,-92.4215,24.87,71,26,2.11,MX,1709010029
26,lihue,21.9789,-159.3672,22.58,76,40,9.26,US,1709010502
27,west island,-12.1568,96.8225,28.41,73,20,5.01,CC,1709010502
28,iqaluit,63.7506,-68.5145,-33.1,92,64,2.27,CA,1709010502
29,parsabad,39.6482,47.9174,0.43,64,1,0.94,IR,1709010503
30,touros,-5.1989,-35.4608,25.3,89,68,2.75,BR,1709010503
31,port elizabeth,-33.918,25.5701,16.29,79,72,1.14,ZA,1709010504
32,walvis bay,-22.9575,14.5053,15.61,87,8,3.29,NA,1709010504
33,puerto ayora,-0.7393,-90.3518,26.42,90,66,2.24,EC,1709010505
34,avarua,-21.2078,-159.775,29.03,84,20,2.06,CK,1709010505
35,port mathurin,-19.6833,63.4167,25.74,71,23,6.56,MU,1709010506
36,bredasdorp,-34.5322,20.0403,15.85,74,0,5.36,ZA,1709010506
37,waitangi,-43.9535,-176.5597,16.57,97,100,1.79,NZ,1709010506
38,thinadhoo,0.5333,72.9333,28.33,78,100,5.38,MV,1709010507
39,puerto deseado,-47.7503,-65.8938,15.47,84,13,4.58,AR,1709010507
40,ust-nera,64.5667,143.2,-27.93,96,71,2.35,RU,1709010508
41,zouerate,22.7187,-12.4521,17.21,37,0,3.87,MR,1709010508
42,saint-philippe,-21.3585,55.7679,28.77,84,64,6.68,RE,1709010509
43,aasiaat,68.7098,-52.8699,-19.07,98,100,4.77,GL,1709010509
44,hamilton,39.1834,-84.5333,18.18,59,100,6.17,US,1709010331
45,ugoofaaru,5.6667,73.0,28.29,81,86,9.01,MV,1709010510
46,papatowai,-46.5619,169.4708,14.82,85,100,1.77,NZ,1709010510
47,uturoa,-16.7333,-151.4333,28.94,75,15,4.81,PF,1709010510
48,sen monorom,12.45,107.2,29.45,46,50,3.52,KH,1709010510
49,coahuayana de hidalgo,18.7,-103.6583,21.69,93,7,1.35,MX,1709010511
50,jamestown,42.097,-79.2353,12.77,88,91,3.83,US,1709010060
51,east london,-33.0153,27.9116,18.31,65,98,1.32,ZA,1709010511
52,porto novo,6.4965,2.6036,26.6,86,25,1.91,BJ,1709010512
53,buka,40.8108,69.1986,3.16,84,100,2.08,UZ,1709010512
54,al-hamdaniya,36.2715,43.3737,5.47,46,99,2.97,IQ,1709010441
55,mount isa,-20.7333,139.5,30.87,66,40,2.57,AU,1709010513
56,punta arenas,-53.15,-70.9167,11.73,81,97,2.23,CL,1709010513
57,kaitong,44.8135,123.15,-3.31,27,100,2.31,CN,1709010514
58,al jawf,29.5,38.75,11.43,49,3,4.46,SA,1709010514
59,albany,42.6001,-73.9662,3.66,81,97,1.63,US,1709010514
60,kedougou,12.5579,-12.1743,25.22,23,49,2.06,SN,1709010515
61,three points,32.0767,-111.3137,22.09,28,100,4.71,US,1709010515
62,vernon,50.2581,-119.2691,-0.14,58,100,7.6,CA,1709010515
63,tazacorte,28.629,-17.9293,18.97,83,75,8.94,ES,1709010516
64,yellowknife,62.456,-114.3525,-28.17,86,98,2.68,CA,1709010516
65,hithadhoo,-0.6,73.0833,28.43,74,96,4.72,MV,1709010240
66,chonchi,-42.6128,-73.8092,11.73,96,99,0.71,CL,1709010517
67,ijmuiden,52.4573,4.6111,4.38,90,0,4.63,NL,1709010517
68,tsiombe,-25.3,45.4833,27.99,69,1,2.45,MG,1709010517
69,kirensk,57.7853,108.1119,-16.69,87,100,0.89,RU,1709010518
70,swift current,50.2834,-107.8014,-21.55,77,100,6.17,CA,1709010518
71,pruzhany,52.5567,24.4644,4.99,90,94,4.25,BY,1709010518
72,olonkinbyen,70.9221,-8.7187,-0.32,100,100,3.04,SJ,1709010519
73,al kharijah,25.4514,30.5464,13.25,34,0,2.7,EG,1709010519
74,gisborne,-38.6533,178.0042,24.04,66,96,0.12,NZ,1709010486
75,luderitz,-26.6481,15.1594,15.97,83,0,0.47,NA,1709010520
76,itajuba,-22.4256,-45.4528,22.09,96,70,0.52,BR,1709010302
77,axim,4.8699,-2.2405,26.29,90,83,1.36,GH,1709010520
78,margaret river,-33.95,115.0667,21.36,43,0,7.25,AU,1709010521
79,guerrero negro,27.9769,-114.0611,17.42,72,97,3.17,MX,1709010433
80,lijiang,26.8688,100.2207,16.09,30,67,4.06,CN,1709010521
81,lompoc,34.6391,-120.4579,12.66,88,20,1.79,US,1709010522
82,pisco,-13.7,-76.2167,22.79,85,100,0.86,PE,1709010522
83,utrik,11.2278,169.8474,26.96,80,21,7.74,MH,1709010522
84,birjand,32.8663,59.2211,2.0,99,99,1.75,IR,1709010523
85,isafjordur,66.0755,-23.124,0.21,97,100,1.49,IS,1709010523
86,bilibino,68.0546,166.4372,-33.76,100,97,0.79,RU,1709010523
87,tazovsky,67.4667,78.7,-6.3,95,100,4.31,RU,1709010524
88,puerto natales,-51.7236,-72.4875,10.73,89,87,0.59,CL,1709010524
89,galveston,29.3669,-94.9669,21.77,90,78,2.68,US,1709010524
90,udachny,66.4167,112.4,-14.75,50,53,4.4,RU,1709010525
91,tiksi,71.6872,128.8694,-18.14,75,100,15.58,RU,1709010525
92,happy valley-goose bay,53.3168,-60.3315,-4.83,86,100,3.09,CA,1709010525
93,sierra grande,-41.606,-65.3557,17.41,84,40,4.79,AR,1709010525
94,thompson,55.7435,-97.8558,-28.7,97,84,2.26,CA,1709010526
95,leshan,29.5623,103.7639,12.04,47,82,1.06,CN,1709010526
96,iskateley,67.6803,53.1512,-1.1,94,100,7.6,RU,1709010526
97,puerto baquerizo moreno,-0.9,-89.6,26.21,77,21,5.39,EC,1709010527
98,bardai,11.65,7.2333,21.68,11,42,3.39,NG,1709010527
99,wailua homesteads,22.0669,-159.378,22.24,77,40,9.26,US,1709010527
100,ta`u,-14.2336,-169.5144,29.04,74,99,6.08,AS,1709010528
101,queenstown,-31.8976,26.8753,10.84,70,84,1.9,ZA,1709010515
102,tonghae,37.5439,129.1069,4.31,59,100,2.37,KR,1709010528
103,papao,-17.75,-149.55,28.82,78,53,4.89,PF,1709010529
104,kristiansund,63.1115,7.732,1.36,69,100,3.09,NO,1709010529
105,ribeira grande,38.5167,-28.7,15.99,73,5,3.13,PT,1709010529
106,yalta,44.5,34.1667,7.12,57,93,4.98,UA,1709010530
107,stephenville,32.2207,-98.2023,23.42,48,99,7.65,US,1709010530
108,misratah,32.3754,15.0925,14.97,40,99,6.18,LY,1709010531
109,farafangana,-22.8167,47.8333,26.27,87,51,3.31,MG,1709010531
110,goya,-29.14,-59.2626,23.21,96,98,1.24,AR,1709010531
111,maun,-19.9833,23.4167,20.55,88,88,0.91,BW,1709010532
112,prince george,53.9166,-122.753,-17.64,73,0,4.12,CA,1709010533
113,ludwigsfelde,52.3,13.2667,6.72,82,0,3.09,DE,1709010533
114,azemmour,33.2895,-8.3425,14.12,60,80,6.87,MA,1709010533
115,bandarbeyla,9.4942,50.8122,26.05,64,98,4.42,SO,1709010534
116,hermanus,-34.4187,19.2345,17.67,75,0,8.17,ZA,1709010534
117,almeirim,-1.5233,-52.5817,23.24,96,100,0.45,BR,1709010534
118,baise city,23.8997,106.6133,13.52,99,100,1.28,CN,1709010535
119,remire-montjoly,4.9167,-52.2667,23.02,94,100,0.0,GF,1709010535
120,grand falls-windsor,48.9332,-55.6649,-6.94,84,78,3.3,CA,1709010535
121,port sudan,19.6175,37.2164,21.64,56,4,2.93,SD,1709010536
122,katpur,21.05,71.7833,28.21,32,4,3.0,IN,1709010536
123,westport,41.1415,-73.3579,6.68,89,0,0.0,US,1709010536
124,la'ie,21.6477,-157.9253,22.98,75,17,5.81,US,1709010536
125,aliquippa,40.6367,-80.2401,12.1,70,75,2.06,US,1709010537
126,san jose del guaviare,2.5729,-72.6459,24.22,72,93,1.48,CO,1709010537
127,saipan,15.1355,145.701,29.39,58,0,4.63,MP,1709010537
128,san luis de la loma,17.2706,-100.8939,23.68,83,0,1.94,MX,1709010538
129,qui nhon,13.7667,109.2333,25.77,80,98,5.17,VN,1709010538
130,zvezdnyy,57.7325,56.3147,-9.67,73,100,4.57,RU,1709010538
131,blackmans bay,-43.0167,147.3167,22.51,53,37,3.63,AU,1709010539
132,malacca,2.196,102.2405,32.24,64,42,1.34,MY,1709010539
133,san bernardo del viento,9.3533,-75.9524,26.77,79,61,6.83,CO,1709010539
134,georgetown,5.4112,100.3354,34.41,46,20,4.63,MY,1709010540
135,morondava,-20.2833,44.2833,27.69,77,100,3.4,MG,1709010540
136,al buraymi,24.2509,55.7931,18.03,65,0,3.63,OM,1709010540
137,huambo,-12.7761,15.7392,14.95,93,81,0.35,AO,1709010541
138,ouallam,14.3188,2.0866,24.19,13,5,4.67,NE,1709010541
139,praia da vitoria,38.7333,-27.0667,15.42,77,75,4.36,PT,1709010541
140,damasak,13.0977,12.4952,23.83,19,35,3.78,NG,1709010542
141,polovinnoye,54.7914,65.9864,-7.95,86,100,3.24,RU,1709010542
142,enewetak,11.3474,162.3373,27.28,77,78,5.35,MH,1709010542
143,tari,12.4086,4.4914,24.19,11,55,4.44,NG,1709010543
144,mastung,29.7994,66.845,5.64,92,99,0.85,PK,1709010543
145,antsiranana,-12.2787,49.2917,27.06,80,100,0.64,MG,1709010542
146,miles city,46.4083,-105.8406,-10.46,85,100,7.2,US,1709010544
147,rocky mountain house,52.3668,-114.9188,-18.88,95,100,2.05,CA,1709010544
148,souillac,-20.5167,57.5167,29.64,76,21,7.24,MU,1709010545
149,galanta,48.19,17.7275,7.27,94,100,3.93,SK,1709010545
150,la passe,45.5549,-0.8967,7.13,89,100,9.99,FR,1709010546
151,saint-jean-de-monts,46.7833,-2.0667,6.5,78,80,12.25,FR,1709010546
152,priozersk,61.0393,30.1291,3.38,87,100,2.5,RU,1709010547
153,longyearbyen,78.2186,15.6401,-9.09,79,75,0.0,SJ,1709010547
154,yung shue wan,22.2333,114.1167,19.06,72,100,0.89,HK,1709010548
155,whitehorse,60.7161,-135.0538,-21.06,99,82,2.52,CA,1709010548
156,caraballeda,10.6112,-66.8522,24.04,83,40,2.57,VE,1709010548
157,shimanovsk,52.0,127.7,-10.68,71,100,2.41,RU,1709010549
158,bratsk,56.1325,101.6142,-17.73,79,100,3.63,RU,1709010549
159,lai chau,22.3997,103.4517,25.95,40,9,2.18,VN,1709010549
160,aleksandrovsk-sakhalinskiy,50.8975,142.1561,-8.02,87,64,2.42,RU,1709010550
161,petropavlovsk-kamchatsky,53.0452,158.6483,-7.67,61,0,7.0,RU,1709010550
162,kapa'a,22.0752,-159.319,22.99,76,40,9.26,US,1709010550
163,hirado,33.3597,129.5531,10.22,58,99,12.64,JP,1709010551
164,san lawrenz,36.0553,14.204,15.67,80,100,8.57,MT,1709010551
165,sovetskiy,61.3614,63.5842,-3.95,92,99,2.68,RU,1709010551
166,taltal,-25.4,-70.4833,19.85,80,41,2.29,CL,1709010552
167,miranda,3.2499,-76.2281,20.07,90,85,2.09,CO,1709010256
168,zaozersk,69.4005,32.4476,-7.27,86,98,3.97,RU,1709010552
169,taupo,-38.6833,176.0833,19.93,50,31,3.95,NZ,1709010274
170,holualoa,19.6228,-155.9522,21.91,87,75,3.6,US,1709010553
171,zhengjiatun,43.5064,123.5064,-2.74,44,100,4.15,CN,1709010554
172,san patricio,28.017,-97.5169,21.97,93,98,7.27,US,1709010554
173,reinosa,42.9996,-4.138,1.21,98,96,7.07,ES,1709010555
174,rancho palos verdes,33.7445,-118.387,14.13,93,100,0.89,US,1709010556
175,puerto princesa,9.7392,118.7353,28.06,65,45,7.37,PH,1709010556
176,bukama,-9.2,25.85,19.3,96,100,0.83,CD,1709010556
177,abilene,32.4487,-99.7331,23.49,33,0,3.09,US,1709010557
178,yamba,-5.9,22.3,20.6,97,99,0.81,CD,1709010557
179,xapuri,-10.6517,-68.5044,22.26,99,100,0.77,BR,1709010558
180,carnarvon,-24.8667,113.6333,27.93,67,7,6.34,AU,1709010558
181,razole,16.4833,81.8333,31.33,43,29,3.17,IN,1709010558
182,kapuskasing,49.4169,-82.4331,-3.46,96,100,3.32,CA,1709010559
183,tegueste,28.5167,-16.3167,16.16,97,75,2.57,ES,1709010559
184,ciudad lazaro cardenas,17.9583,-102.2,23.25,87,10,1.57,MX,1709010559
185,khanty-mansiysk,61.0042,69.0019,0.06,74,40,4.0,RU,1709010560
186,garagoa,5.0824,-73.3633,16.24,81,88,0.7,CO,1709010560
187,port lincoln,-34.7333,135.8667,27.02,55,21,4.12,AU,1709010560
188,rabigh,22.7986,39.0349,22.34,48,0,3.06,SA,1709010561
189,vorgashor,67.5833,63.95,-1.84,97,100,4.63,RU,1709010561
190,tura,25.5198,90.2201,25.99,22,84,1.46,IN,1709010561
191,anatuya,-28.4606,-62.8347,23.11,94,40,3.06,AR,1709010562
192,ancud,-41.8697,-73.8203,13.23,94,90,1.2,CL,1709010562
193,hawaiian paradise park,19.5933,-154.9731,21.73,91,100,1.54,US,1709010563
194,saldanha,-33.0117,17.9442,16.86,62,0,3.74,ZA,1709010563
195,afaahiti,-17.75,-149.2833,27.93,78,38,3.63,PF,1709010563
196,rio grande,-32.035,-52.0986,22.19,91,100,10.64,BR,1709010564
197,malvan,16.0667,73.4667,29.9,39,86,0.91,IN,1709010564
198,tenno,39.9,139.9667,4.38,75,100,6.35,JP,1709010564
199,gadzhiyevo,69.2551,33.3362,-5.24,84,100,4.88,RU,1709010565
200,formosa,-26.1775,-58.1781,27.06,76,100,1.78,AR,1709010565
201,labrador city,52.9463,-66.9114,-14.05,86,20,4.12,CA,1709010565
202,ushibukamachi,32.1906,130.0228,11.1,49,92,6.97,JP,1709010566
203,keflavik,64.0049,-22.5624,2.24,87,75,11.83,IS,1709010566
204,callao,-12.0667,-77.15,25.95,90,84,5.4,PE,1709010566
205,neryungri,56.6709,124.6491,-19.9,86,91,1.19,RU,1709010567
206,berea,41.3662,-81.8543,13.15,63,20,4.12,US,1709010567
207,loikaw,19.6742,97.2094,33.35,14,0,1.12,MM,1709010568
208,naze,28.3667,129.4833,14.66,69,98,4.57,JP,1709010568
209,khagaria,25.5,86.4833,25.44,20,97,1.73,IN,1709010568
210,kuanda,56.3161,116.0806,-23.4,87,63,1.05,RU,1709010569
211,flying fish cove,-10.4217,105.6791,30.82,74,40,4.63,CX,1709010569
212,yunyang,33.4474,112.7142,7.76,43,41,3.27,CN,1709010569
213,shantobe,52.4581,68.1839,-10.8,91,78,2.73,KZ,1709010570
214,brisas de zicatela,15.8369,-97.0419,24.86,78,3,2.83,MX,1709010570
215,fort bragg,35.139,-79.006,13.91,46,0,4.12,US,1709010570
216,sinabang,2.4803,96.3801,30.66,66,40,1.52,ID,1709010571
217,tamanrasset,22.785,5.5228,9.95,14,0,1.54,DZ,1709010571
218,baiti,13.745,-14.7482,23.17,12,3,2.01,SN,1709010571
219,cururupu,-1.8283,-44.8683,23.23,99,100,1.09,BR,1709010572
220,bousse,12.6606,-1.8922,25.89,21,17,2.59,BF,1709010572
221,starkville,33.4504,-88.8184,19.93,68,0,5.66,US,1709010572
222,embu,-23.6489,-46.8522,23.19,84,71,1.47,BR,1709010573
223,sitia,35.2,26.0986,13.88,77,59,1.11,GR,1709010573
224,tindouf,27.6711,-8.1474,14.1,75,98,8.94,DZ,1709010573
225,cambria,35.5641,-121.0808,13.21,96,92,0.89,US,1709010574
226,goure,13.9835,10.2704,21.46,15,27,3.74,NE,1709010574
227,tshabong,-26.05,22.45,20.09,21,1,4.15,BW,1709010574
228,lazaro cardenas,17.9583,-102.2,23.25,87,10,1.57,MX,1709010575
229,petrozavodsk,61.7849,34.3469,0.73,99,100,2.93,RU,1709010575
230,kabo,7.6994,18.629,25.93,31,100,0.97,CF,1709010576
231,namibe,-15.1961,12.1522,23.63,79,77,2.49,AO,1709010576
232,kingston,17.997,-76.7936,25.53,86,75,3.09,JM,1709010389
233,blackwater,-23.5833,148.8833,34.09,36,23,7.04,AU,1709010577
234,thunder bay,48.4001,-89.3168,-1.92,90,100,1.33,CA,1709010489
235,maumere,-8.6199,122.2111,29.93,70,58,2.11,ID,1709010577
236,cabo san lucas,22.8909,-109.9124,22.01,77,47,3.13,MX,1709010148
237,mindelo,16.8901,-24.9804,21.8,72,12,6.85,CV,1709010578
238,hammerfest,70.6634,23.6821,1.25,75,40,5.66,NO,1709010578
239,trincomalee,8.5711,81.2335,27.79,74,73,7.33,LK,1709010578
240,colonia,50.9333,6.95,5.97,85,0,2.57,DE,1709010579
241,pirae,-17.5167,-149.5333,29.01,70,75,1.54,PF,1709010579
242,nuuk,64.1835,-51.7216,-6.66,79,100,7.72,GL,1709010579
243,limassol,34.675,33.0333,16.04,48,0,7.72,CY,1709010517
244,motueka,-41.1333,173.0167,21.72,53,49,2.19,NZ,1709010580
245,boca suno,-0.7167,-77.1333,22.01,98,84,0.97,EC,1709010580
246,swanage,50.6092,-1.9626,3.8,90,33,4.02,GB,1709010581
247,begamganj,23.6,78.3333,25.82,45,8,2.35,IN,1709010581
248,dawei,14.0833,98.2,34.69,41,20,3.98,MM,1709010581
249,minas de marcona,-15.2119,-75.1103,18.94,89,96,5.18,PE,1709010582
250,tralee,52.2704,-9.7026,7.94,91,100,4.89,IE,1709010582
251,vilyuchinsk,52.9306,158.4028,-6.85,60,0,2.33,RU,1709010582
252,jayapura,-2.5333,140.7,28.66,82,94,2.32,ID,1709010583
253,joshimath,30.5667,79.5667,8.12,88,100,0.94,IN,1709010583
254,alice springs,-23.7,133.8833,37.75,17,92,2.57,AU,1709010583
255,n'djamena,12.1067,15.0444,25.09,35,44,3.2,TD,1709010584
256,port saint john's,-31.6229,29.5448,17.77,75,68,3.35,ZA,1709010584
257,ascension,30.2169,-90.9001,21.12,88,100,4.12,US,1709010585
258,revda,56.801,59.9303,-7.55,72,100,4.87,RU,1709010585
259,talnakh,69.4865,88.3972,-9.33,96,100,6.64,RU,1709010585
260,tucuma,-0.1833,-50.05,23.84,94,57,1.67,BR,1709010495
261,argo,37.6333,22.7333,11.55,82,16,1.88,GR,1709010586
262,christchurch,-43.5333,172.6333,20.51,75,40,6.69,NZ,1709009969
263,codrington,-38.2667,141.9667,22.28,47,42,6.31,AU,1709010586
264,itamaraca,-7.7478,-34.8256,26.03,84,91,3.63,BR,1709010587
265,shuangcheng,45.35,126.2833,-6.32,72,100,2.9,CN,1709010587
266,bengkulu,-3.8004,102.2655,29.68,67,34,3.56,ID,1709010587
267,sahab,31.8721,36.005,6.35,70,89,0.0,JO,1709010588
268,klyuchi,52.2667,79.1667,-9.27,92,90,1.4,RU,1709010588
269,newman,37.3138,-121.0208,14.6,92,75,1.29,US,1709010593
270,kushiro,42.975,144.3747,-1.33,79,100,9.9,JP,1709010593
271,punata,-17.55,-65.8333,15.03,81,90,2.41,BO,1709010593
272,hailey,43.5196,-114.3153,-11.67,75,43,3.31,US,1709010594
273,port lavaca,28.615,-96.6261,22.39,90,100,5.14,US,1709010594
274,gamba,-2.65,10.0,25.8,89,90,2.23,GA,1709010594
275,santa rosalia,27.3167,-112.2833,20.25,49,100,3.32,MX,1709010595
276,bom jesus,-9.0744,-44.3586,22.5,74,98,0.29,BR,1709010595
277,chinde,26.8418,88.0763,17.83,28,62,2.55,NP,1709010595
278,progreso,21.2833,-89.6667,22.06,75,1,4.9,MX,1709010596
279,mpongwe,-13.5091,28.155,17.72,97,100,0.32,ZM,1709010596
280,ambovombe,-25.1667,46.0833,26.86,71,0,2.35,MG,1709010596
281,kavaratti,10.5669,72.642,28.01,74,92,5.76,IN,1709010597
282,dalandzadgad,43.5708,104.425,-9.3,54,16,3.35,MN,1709010597
283,aykhal,66.0,111.5,-19.44,72,66,5.25,RU,1709010597
284,pavlohrad,48.5167,35.8667,-1.12,65,100,5.21,UA,1709010598
285,ippy,6.2679,21.2247,26.63,34,90,0.04,CF,1709010598
286,hatillo,18.4863,-66.8254,23.88,94,52,5.43,PR,1709010598
287,yangjiang,21.85,111.9667,17.06,62,100,4.37,CN,1709010599
288,howard springs,-12.497,131.047,32.71,75,51,3.58,AU,1709010599
289,egilsstadir,65.2653,-14.3948,1.54,99,100,3.05,IS,1709010600
290,taroudant,30.4703,-8.877,11.05,89,31,0.18,MA,1709010600
291,quesada,10.3238,-84.4271,23.73,98,85,1.47,CR,1709010600
292,kantagi,43.5264,68.5775,0.5,44,0,4.4,KZ,1709010601
293,parkersburg,39.2667,-81.5615,14.34,36,0,3.09,US,1709010334
294,susuman,62.7833,148.1667,-28.34,89,54,0.89,RU,1709010601
295,ewo,-0.8725,14.8206,23.85,79,58,0.73,CG,1709010602
296,zyryanskoye,56.8306,86.6258,-14.16,92,98,2.33,RU,1709010602
297,san jose,37.3394,-121.895,13.95,78,20,5.14,US,1709010073
298,alofi,-19.0595,-169.9187,28.94,79,40,3.6,NU,1709010604
299,kyshtovka,56.555,76.6271,-14.81,96,87,3.13,RU,1709010605
300,khandyga,62.6667,135.6,-24.6,91,100,0.45,RU,1709010605
301,qaqortoq,60.7167,-46.0333,-12.01,79,100,4.52,GL,1709010605
302,barcelos,41.5388,-8.6151,7.73,82,9,3.3,PT,1709010606
303,mammoth lakes,37.6485,-118.9721,2.4,65,75,6.69,US,1709010606
304,al qubbah,32.7616,22.2424,7.96,90,20,5.4,LY,1709010606
305,sendafa,9.15,39.0333,14.64,48,94,1.17,ET,1709010607
306,ares,-6.1944,-35.1603,25.0,89,76,3.04,BR,1709010607
307,karbala,32.616,44.0249,9.99,38,91,4.69,IQ,1709010608
308,howrah,22.5892,88.3103,26.0,47,75,1.54,IN,1709010609
309,santana,-0.0583,-51.1817,26.1,89,0,1.54,BR,1709010609
310,crane,31.3974,-102.3501,23.09,20,100,3.07,US,1709010609
311,nema,57.5067,50.5011,-7.32,82,100,5.06,RU,1709010610
312,fale old settlement,-9.3852,-171.2468,28.63,76,94,6.28,TK,1709010610
313,al mansurah,31.0364,31.3807,10.46,87,0,3.01,EG,1709010611
314,dudinka,69.4058,86.1778,-9.1,94,100,9.83,RU,1709010611
315,kayangel,8.0823,134.7173,26.78,86,100,10.25,PW,1709010611
316,monrovia,6.3005,-10.7969,26.2,90,34,0.84,LR,1709010612
317,nelson bay,-32.7167,152.15,24.44,82,95,6.26,AU,1709010612
318,kibondo,-3.5864,30.7203,16.08,94,100,0.71,TZ,1709010563
319,hasaki,35.7333,140.8333,12.22,39,22,13.16,JP,1709010615
320,sanluri,39.5611,8.8994,13.05,95,100,2.63,IT,1709010616
321,brookings,44.3114,-96.7984,10.06,74,0,1.54,US,1709010431
322,glace bay,46.1969,-59.957,-0.01,92,100,3.6,CA,1709010616
323,caleta de carquin,-11.0925,-77.6267,23.76,85,87,4.72,PE,1709010617
324,bojia,26.4672,111.9681,6.51,64,96,2.17,CN,1709010617
325,la sarre,48.8002,-79.1996,-5.57,94,100,4.02,CA,1709010618
326,port alfred,-33.5906,26.891,18.58,55,87,1.79,ZA,1709010618
327,shakawe,-18.3667,21.85,20.18,90,96,0.57,BW,1709010618
328,turpan,42.9333,89.1667,4.46,28,1,1.14,CN,1709010619
329,el calafate,-50.3408,-72.2768,13.16,72,100,0.41,AR,1709010594
330,santa croce camerina,36.8289,14.5268,14.82,82,100,2.57,IT,1709010620
331,vilyuysk,63.7553,121.6247,-21.67,92,74,1.79,RU,1709010621
332,kanker,20.2719,81.4931,30.64,43,45,0.87,IN,1709010621
333,zdvinsk,54.7021,78.661,-14.24,94,100,2.94,RU,1709010622
334,karratha,-20.7377,116.8463,39.42,32,33,6.61,AU,1709010622
335,yazykovo,55.2199,56.1353,-15.58,84,95,2.44,RU,1709010623
336,juneau,58.3019,-134.4197,-7.0,75,40,5.14,US,1709010623
337,port macquarie,-31.4333,152.9167,28.27,60,37,4.01,AU,1709010246
338,vadso,70.0744,29.7487,-1.91,74,0,4.12,NO,1709010624
339,vila franca do campo,37.7167,-25.4333,13.23,83,4,3.64,PT,1709010624
340,soure,-0.7167,-48.5233,24.02,93,85,2.19,BR,1709010625
341,vila velha,-20.3297,-40.2925,22.97,97,20,1.54,BR,1709010625
342,tanjungagung,-3.9333,103.8,31.48,61,82,2.72,ID,1709010626
343,mahajanga,-15.7167,46.3167,28.47,75,94,1.5,MG,1709010626
344,kerikeri,-35.2268,173.9474,22.17,84,94,0.89,NZ,1709010626
345,waingapu,-9.6567,120.2641,30.73,69,23,3.3,ID,1709010627
346,pokrovsk,48.282,37.1758,-1.71,60,99,6.17,UA,1709010627
347,sandnessjoen,66.0217,12.6316,2.06,75,75,7.72,NO,1709010627
348,gokceada,40.2011,25.909,6.6,75,21,4.19,TR,1709010628
349,kaduy,59.2,37.15,0.04,98,100,3.02,RU,1709010628
350,nova sintra,14.8667,-24.7167,19.53,76,30,7.51,CV,1709010628
351,lata,40.1629,-8.3327,5.6,91,3,1.84,PT,1709010629
352,frederico westphalen,-27.3592,-53.3944,20.75,99,100,1.19,BR,1709010629
353,nar'yan-mar,67.6713,53.087,-1.05,94,100,7.6,RU,1709010381
354,northam,51.0333,-4.2167,4.24,79,88,2.5,GB,1709010630
355,tolanaro,-25.0319,46.9987,26.86,80,3,5.46,MG,1709010630
356,capilla de guadalupe,20.8333,-102.5833,18.2,25,8,0.85,MX,1709010630
357,geraldton,-28.7667,114.6,28.23,51,77,9.26,AU,1709010631
358,beau vallon,-20.4189,57.6953,29.56,75,23,7.46,MU,1709010631
359,badger,64.8,-147.5333,-13.86,57,75,2.06,US,1709010631
360,dolores,-36.3132,-57.6792,18.92,95,73,2.09,AR,1709010632
361,machico,32.7,-16.7667,17.06,68,75,9.26,PT,1709010633
362,mahibadhoo,3.7833,72.9667,28.3,82,73,6.39,MV,1709010633
363,figuig (centre),32.1089,-1.2286,6.73,51,8,7.51,MA,1709010633
364,nizhniy odes,63.6445,54.856,-3.46,96,100,3.89,RU,1709010633
365,kas,36.2018,29.6377,12.78,75,95,5.34,TR,1709010634
366,le vauclin,14.5452,-60.8388,23.03,83,75,0.0,MQ,1709010634
367,maracacume,-2.0428,-45.9592,22.98,99,100,1.32,BR,1709010563
368,brownfield,33.1812,-102.2744,19.41,32,93,3.79,US,1709010635
369,torbat-e heydariyeh,35.274,59.2195,-2.74,79,100,2.18,IR,1709010635
370,mount pearl,47.5166,-52.7813,-4.81,93,20,6.69,CA,1709010636
371,hirara,24.8,125.2833,19.72,74,97,8.42,JP,1709010636
372,cudillero,43.5622,-6.1459,10.32,74,75,3.09,ES,1709010636
373,pudozh,61.8099,36.5345,1.08,98,100,5.36,RU,1709010637
374,hilton head island,32.2163,-80.7526,14.06,86,0,0.0,US,1709010637
375,qamdo,31.1667,97.2333,-1.74,39,60,3.0,CN,1709010642
376,gilgit,35.9221,74.3087,2.4,72,91,0.5,PK,1709010642
377,turkmenbasy,40.0222,52.9552,1.31,36,44,4.49,TM,1709010642
378,coquimbo,-29.9533,-71.3436,18.22,84,40,1.58,CL,1709010643
379,gereida,11.2811,25.1414,22.7,14,66,5.7,SD,1709010643
380,talcahuano,-36.7167,-73.1167,13.33,86,0,3.11,CL,1709010643
381,shalqar,47.8333,59.6,-7.95,78,20,4.32,KZ,1709010644
382,grootfontein,-19.5667,18.1167,21.13,63,90,2.22,NA,1709010644
383,sisimiut,66.9395,-53.6735,-12.31,77,100,8.0,GL,1709010645
384,sterling,39.0062,-77.4286,11.36,68,0,2.57,US,1709010645
385,xining,36.6167,101.7667,0.64,41,99,2.0,CN,1709010645
386,norfolk,42.1668,-71.2495,5.34,85,0,0.0,US,1709010542
387,morogoro,-6.8167,37.6667,21.62,97,100,2.22,TZ,1709010646
388,slave lake,55.2834,-114.769,-22.01,71,100,2.57,CA,1709010646
389,general roca,-39.0333,-67.5833,23.8,19,9,5.23,AR,1709010647
390,saray,40.5322,49.7164,2.28,53,16,0.15,AZ,1709010647
391,banda aceh,5.5577,95.3222,31.63,60,98,4.46,ID,1709010647
392,el matama,16.7095,33.3565,21.17,15,10,5.82,SD,1709010648
393,sault ste. marie,46.5168,-84.3333,1.31,86,0,2.57,CA,1709010500
394,rongelap,11.1635,166.8941,26.93,81,51,7.36,MH,1709010648
395,isangel,-19.55,169.2667,28.29,83,100,2.63,VU,1709010649
396,pagsanghan,11.9657,124.7212,29.84,51,71,4.73,PH,1709010649
397,magadan,59.5667,150.8,-14.15,87,5,1.47,RU,1709010649
398,umm kaddadah,13.6017,26.6876,20.96,14,79,6.2,SD,1709010649
399,trancoso,22.7333,-102.3667,18.87,22,3,3.35,MX,1709010650
400,winnemucca,40.973,-117.7357,1.03,69,100,5.14,US,1709010551
401,miryang,35.4933,128.7489,6.03,43,100,3.34,KR,1709010650
402,lamarque,-39.423,-65.7021,22.35,26,24,2.25,AR,1709010651
403,bayji,34.9311,43.487,8.61,34,92,7.07,IQ,1709010651
404,suntar,62.1444,117.6319,-16.45,87,99,2.71,RU,1709010651
405,arkhangel'sk,64.5401,40.5433,1.06,100,75,2.0,RU,1709010652
406,quatre cocos,-20.2078,57.7625,29.49,76,31,7.19,MU,1709010652
407,san antonio oeste,-40.7319,-64.9477,19.97,81,20,8.71,AR,1709010653
408,shumikha,55.2261,63.2961,-5.92,78,100,4.66,RU,1709010653
409,cockburn town,21.4612,-71.1419,23.62,75,100,9.23,TC,1709010653
410,traverse city,44.7631,-85.6206,12.29,59,0,4.63,US,1709010653
411,hami,42.8,93.45,-0.58,34,6,3.33,CN,1709010654
412,zhob,31.3411,69.4481,8.64,57,72,0.96,PK,1709010654
413,sarmiento,-45.5882,-69.07,16.6,56,76,2.31,AR,1709010654
414,sokoni,-6.4333,39.55,27.52,84,96,5.33,TZ,1709010655
415,sao gabriel da cachoeira,-0.1303,-67.0892,22.07,90,100,0.88,BR,1709010655
416,taroa,8.7058,171.2275,27.47,82,48,8.77,MH,1709010655
417,aden,12.7794,45.0367,25.14,74,91,4.06,YE,1709010656
418,pointe aux piments,-20.0628,57.5131,29.73,75,10,8.3,MU,1709010656
419,sabha,27.0377,14.4283,12.14,19,0,5.17,LY,1709010656
420,tarawa,1.419,172.984,28.92,77,9,5.87,KI,1709010657
421,lycksele,64.5954,18.6735,-14.07,92,0,0.0,SE,1709010657
422,fedorovskiy,45.0972,40.9517,0.07,60,0,8.11,RU,1709010657
423,as sulayyil,20.4607,45.5779,18.34,42,9,5.58,SA,1709010658
424,tyukhtet,56.5389,89.3011,-13.04,86,34,1.51,RU,1709010658
425,atasu,48.6814,71.6433,-13.81,92,40,1.02,KZ,1709010440
426,rumoi,43.9344,141.6428,-1.11,74,100,7.16,JP,1709010658
427,visakhapatnam,17.69,83.2093,28.94,65,40,4.12,IN,1709010659
428,sur,22.5667,59.5289,23.59,72,53,3.49,OM,1709010659
429,sao jose da coroa grande,-8.8978,-35.1478,26.91,74,98,3.05,BR,1709010659
430,dunedin,-45.8742,170.5036,15.45,90,57,1.79,NZ,1709010660
431,kassala,15.451,36.4,22.95,43,51,2.63,SD,1709010660
432,tekman,39.6436,41.5078,-10.05,67,4,1.02,TR,1709010660
433,nam som,17.7704,102.1895,28.61,36,4,3.25,TH,1709010661
434,belyy yar,53.6039,91.3903,-16.06,72,40,1.0,RU,1709010661
435,acapulco de juarez,16.8634,-99.8901,25.9,78,20,1.54,MX,1709010503
436,mahdia,35.5047,11.0622,13.97,55,100,6.98,TN,1709010662
437,macuspana,17.7667,-92.6,20.27,86,15,2.21,MX,1709010662
438,vilhena,-12.7406,-60.1458,19.99,98,57,1.45,BR,1709010663
439,amursk,50.2261,136.8994,-10.54,82,99,1.94,RU,1709010663
440,worland,44.0169,-107.9554,-0.74,73,100,6.69,US,1709010664
441,onega,63.9061,38.1404,0.16,99,100,1.89,RU,1709010664
442,srinivaspur,13.3333,78.2167,25.41,48,38,4.62,IN,1709010665
443,nemuro,43.3236,145.575,-1.77,76,100,10.89,JP,1709010665
444,chibougamau,49.9168,-74.3659,-13.34,89,100,2.88,CA,1709010665
445,suva,-18.1416,178.4415,29.01,81,40,0.84,FJ,1709010666
446,gizo,-8.103,156.8419,29.0,75,99,3.75,SB,1709010666
447,portrush,55.1959,-6.6493,7.2,87,100,10.03,GB,1709010666
448,kobelyaky,49.1489,34.1965,-0.84,71,100,4.6,UA,1709010667
449,bolgatanga,10.7856,-0.8514,26.92,42,11,0.38,GH,1709010667
450,bestobe,52.4994,73.0975,-6.1,89,98,3.18,KZ,1709010667
451,villa gesell,-37.2639,-56.973,20.03,95,7,4.19,AR,1709010668
452,lakatoro,-16.0999,167.4164,28.07,79,99,1.65,VU,1709010668
453,weligama,5.9667,80.4167,31.54,54,95,5.97,LK,1709010520
454,purpe,64.4803,76.6897,-4.08,94,100,5.92,RU,1709010669
455,dwarka,22.2394,68.9678,22.94,46,43,8.04,IN,1709010669
456,fort st. john,56.2499,-120.8529,-23.06,77,75,4.12,CA,1709010374
457,north bend,43.4065,-124.2243,6.95,70,75,4.63,US,1709010576
458,totness,5.8833,-56.3167,24.7,84,2,4.33,SR,1709010671
459,san antonio de pale,-1.4014,5.6325,28.2,78,47,3.12,GQ,1709010671
460,sale,34.0389,-6.8166,14.38,58,75,3.6,MA,1709010671
461,flin flon,54.7682,-101.865,-22.3,91,100,3.43,CA,1709010672
462,puerto aysen,-45.4,-72.7,11.92,99,100,1.56,CL,1709010672
463,qarqaraly,49.4058,75.4742,-10.93,92,76,1.71,KZ,1709010672
464,tual,-5.6667,132.75,28.67,77,90,6.3,ID,1709010673
465,metlili chaamba,32.2667,3.6333,11.18,43,100,6.91,DZ,1709010673
466,waitara,-38.925,174.25,17.22,66,15,4.51,NZ,1709010673
467,faya-largeau,17.9257,19.1043,21.32,21,83,9.55,TD,1709010674
468,nioki,-2.7167,17.6833,21.7,87,100,1.01,CD,1709010674
469,milhaud,43.7833,4.3,5.83,93,0,2.06,FR,1709010675
470,singkil,-7.9855,111.4161,32.51,60,62,0.71,ID,1709010675
471,anchorage,61.2181,-149.9003,-5.96,85,100,5.66,US,1709010562
472,pauini,-7.7136,-66.9764,21.87,99,100,0.68,BR,1709010676
473,ar rutbah,33.0381,40.2848,5.71,41,96,3.45,IQ,1709010676
474,mirnyy,62.5353,113.9611,-19.87,70,91,0.89,RU,1709010676
475,laguna,38.421,-121.4238,12.95,78,0,3.09,US,1709010678
476,lomas de santa anita,20.501,-103.4947,20.79,35,0,2.06,MX,1709010679
477,janakpur,26.7183,85.9065,24.87,15,81,2.6,NP,1709010680
478,sakaiminato,35.55,133.2333,6.76,49,100,8.06,JP,1709010680
479,hakui,36.8833,136.7833,6.81,60,93,6.7,JP,1709010680
480,sabinov,49.1031,21.0988,6.47,94,100,1.63,SK,1709010681
481,saskatoon,52.1168,-106.6345,-19.35,78,100,7.2,CA,1709010409
482,port washington,40.8257,-73.6982,8.11,85,75,1.54,US,1709010681
483,lorengau,-2.0226,147.2712,28.74,75,90,0.26,PG,1709010682
484,kirakira,-10.4544,161.9205,28.86,76,81,1.61,SB,1709010682
485,tokar,18.4254,37.729,22.49,62,3,2.95,SD,1709010682
486,kindu,-2.95,25.95,20.82,93,99,1.04,CD,1709010683
487,kibaya,-5.3,36.5667,16.03,98,100,2.84,TZ,1709010683
488,kiruna,67.8557,20.2251,-8.49,86,100,5.66,SE,1709010683
489,genhe,50.7833,121.5167,-10.79,79,100,1.6,CN,1709010687
490,smithers,54.7804,-127.1743,-12.95,89,95,1.14,CA,1709010688
491,naha,26.2125,127.6811,21.38,68,75,5.14,JP,1709010688
492,kaa-khem,51.6833,94.7333,-19.77,91,100,1.38,RU,1709010689
493,raebareli,26.2167,81.2333,25.39,20,47,2.23,IN,1709010692
494,ilhabela,-23.7781,-45.3581,24.89,92,79,2.81,BR,1709010694
495,mil'kovo,55.6078,37.7956,-2.73,91,73,3.78,RU,1709010695
496,bandipura,34.4167,74.65,6.53,64,93,0.85,IN,1709010695
497,rohri,27.6922,68.8951,17.67,56,84,3.09,PK,1709010696
498,sitka,57.0531,-135.33,-2.06,43,75,6.17,US,1709010696
499,lincoln,40.8,-96.667,13.78,32,0,3.09,US,1709010687
500,ulladulla,-35.35,150.4667,21.49,69,100,4.42,AU,1709010275
501,palikir - national government center,6.9248,158.1611,30.47,74,100,4.12,FM,1709010699
502,sosnovo-ozerskoye,52.5249,111.5418,-17.78,83,100,1.34,RU,1709010699
503,zelenoborskiy,66.845,32.3622,-1.3,93,100,2.64,RU,1709010700
504,vryburg,-26.9566,24.7284,15.9,72,0,2.6,ZA,1709010702
505,pembroke,45.8168,-77.1162,-0.46,62,100,3.8,CA,1709010705
506,luganville,-15.5333,167.1667,27.93,83,100,1.62,VU,1709010706
507,tibu,8.639,-72.7358,22.75,89,52,0.92,CO,1709010707
508,peace river,56.2501,-117.286,-17.52,66,100,3.09,CA,1709010707
509,broome,42.2506,-75.833,6.56,75,85,2.17,US,1709010707
510,biryusinsk,55.9634,97.8235,-13.62,83,92,1.93,RU,1709010708
511,santa vitoria do palmar,-33.5189,-53.3681,20.96,94,100,2.81,BR,1709010616
512,navia,43.5354,-6.7194,7.24,86,97,3.0,ES,1709010708
513,querqueville,49.6625,-1.6912,5.82,81,100,5.14,FR,1709010710
514,borda da mata,-22.2742,-46.1653,19.23,96,29,1.0,BR,1709010710
515,mitu,1.1983,-70.1733,22.43,99,97,1.12,CO,1709010711
516,reyes,-14.3167,-67.3833,23.0,99,100,0.28,BO,1709010711
517,lamar,33.6668,-95.5836,22.21,75,0,9.26,US,1709010711
518,lae,-6.7221,146.9847,30.21,65,99,3.79,PG,1709010712
519,blythe,33.6103,-114.5964,19.25,37,0,3.6,US,1709010713
520,naxos,37.1056,25.3764,14.61,87,28,1.34,GR,1709010713
521,gordonvale,-17.0936,145.7842,34.41,78,100,2.34,AU,1709010713
522,arraial do cabo,-22.9661,-42.0278,24.7,89,92,3.7,BR,1709010714
523,shingu,33.7333,135.9833,9.66,39,86,2.08,JP,1709010714
524,abashiri,44.0213,144.2697,-2.84,93,75,8.75,JP,1709010714
525,san diego de la union,21.4667,-100.8667,16.92,33,23,0.9,MX,1709010715
526,farasan,16.7022,42.1183,25.71,73,25,1.15,SA,1709010715
527,tuburan,6.6439,122.2736,28.11,71,77,4.25,PH,1709010715
528,kailua-kona,19.6406,-155.9956,23.98,85,75,3.6,US,1709010716
529,camapua,-19.5314,-54.0439,25.95,63,63,0.99,BR,1709010716
530,wanning,18.8003,110.3967,22.54,88,96,4.79,CN,1709010716
531,torbat-e jam,35.244,60.6225,-3.82,76,100,2.33,IR,1709010716
532,pritzwalk,53.1494,12.1741,1.99,93,94,3.94,DE,1709010717
533,chinchilla,-26.75,150.6333,35.01,43,19,4.02,AU,1709010717
534,archangelos,36.2149,28.1149,15.17,77,80,9.89,GR,1709010718
535,mosjoen,65.836,13.1908,2.06,86,40,2.06,NO,1709010718
536,kenai,60.5544,-151.2583,-6.03,91,100,11.32,US,1709010654
537,zheleznogorsk-ilimskiy,56.5768,104.1217,-15.4,82,100,2.02,RU,1709010719
538,akrehamn,59.2667,5.1833,4.12,87,100,5.14,NO,1709010719
539,darwin,-12.4611,130.8418,32.75,74,40,4.12,AU,1709010719
540,cabedelo,-6.9811,-34.8339,26.12,85,87,3.91,BR,1709010719
541,urangan,-25.3,152.9,30.11,62,11,6.71,AU,1709010720
542,usogorsk,63.4106,48.6872,-1.85,95,100,3.23,RU,1709010720
543,boa vista,2.8197,-60.6733,26.99,69,20,3.09,BR,1709010720
544,trujillo,-8.116,-79.03,24.01,80,81,2.3,PE,1709010721
545,tofol,5.3248,163.0078,25.71,89,99,5.23,FM,1709010721
546,dryden,49.7833,-92.7503,-6.84,93,100,4.63,CA,1709010722
547,ishikari,43.2397,141.3539,2.92,66,100,3.69,JP,1709010722
548,hadibu,12.65,54.0333,25.53,67,99,1.74,YE,1709010722
549,caleta olivia,-46.4393,-67.5281,15.33,96,30,2.98,AR,1709010722
550,weno,7.4515,151.8468,27.65,80,72,7.8,FM,1709010723
551,puerto lempira,15.2667,-83.7667,24.82,78,14,4.51,HN,1709010723
552,belmonte,-15.8631,-38.8828,24.67,90,22,2.45,BR,1709010724
553,mejit,10.2753,170.8646,27.04,82,94,8.29,MH,1709010724
554,elena,42.9333,25.8833,-0.38,67,87,1.37,BG,1709010724
555,princeville,45.7668,-61.2985,1.36,94,100,4.63,CA,1709010724
556,angaur state,6.906,134.13,27.18,84,69,7.53,PW,1709010725
557,cidreira,-30.1811,-50.2056,23.02,98,100,4.82,BR,1709010725
558,mazamari,-11.3258,-74.5308,20.73,99,82,0.7,PE,1709010726
559,abepura,-2.6333,140.5833,28.45,79,40,0.51,ID,1709010726
560,masvingo,-20.0637,30.8277,18.03,97,100,4.89,ZW,1709010726
561,norilsk,69.3535,88.2027,-9.21,95,100,4.81,RU,1709010727
562,laojunmiao,39.8333,97.7333,-5.67,71,86,1.96,CN,1709010727
563,byron bay,-28.65,153.6167,28.17,60,14,5.11,AU,1709010727
564,ekibastuz,51.6667,75.3667,-5.56,90,100,4.14,KZ,1709010728
565,ponta delgada,37.7333,-25.6667,13.4,71,40,3.6,PT,1709010728
566,mahina,-17.5065,-149.489,28.87,70,75,1.54,PF,1709010729
567,padang,-0.9492,100.3543,33.03,62,47,2.62,ID,1709010729
568,oyon,-10.6681,-76.7731,9.18,92,93,1.51,PE,1709010730
569,nago,26.5881,127.9761,21.47,73,100,4.12,JP,1709010730
570,jaithari,23.2333,78.6167,27.13,48,3,1.62,IN,1709010730
571,lowestoft,52.4752,1.7516,4.12,85,8,3.73,GB,1709010731
572,mazatlan,23.2167,-106.4167,21.06,89,0,0.0,MX,1709010610
573,dubovskoye,47.4092,42.7575,-1.99,60,0,7.68,RU,1709010731
574,kyaikkami,16.08,97.5675,30.25,55,2,3.33,MM,1709010732
575,dolinsk,47.35,142.8,-7.93,83,100,4.17,RU,1709010732
576,severo-yeniseyskiy,60.3725,93.0408,-14.68,85,98,1.34,RU,1709010732
577,rabaul,-4.1967,152.1721,28.82,72,100,4.91,PG,1709010733
578,san andres,12.5847,-81.7006,26.97,76,16,6.51,CO,1709010733
